[
  {
    "ID": "1",
    "status": "resolved",
    "상태": "",
    "latitude": "33.5494717",
    "longitude": "126.7170891",
    "ownership_standardized": "국가",
    "validated_address_ko": "제주특별자치도 제주시 구좌읍 동복리 863",
    "shrine_name": "동복리 본향 굴묵밧할망당"
  },
  {
    "ID": "2",
    "status": "resolved",
    "상태": "",
    "latitude": "33.5507592",
    "longitude": "126.752818",
    "ownership_standardized": "국가",
    "validated_address_ko": "제주특별자치도 제주시 구좌읍 김녕리 1771",
    "shrine_name": "김녕 본향 사장빌레큰당"
  },
  {
    "ID": "3",
    "status": "resolved",
    "상태": "폐당",
    "latitude": "33.5507592",
    "longitude": "126.752818",
    "ownership_standardized": "국가",
    "validated_address_ko": "제주특별자치도 제주시 구좌읍 김녕리 1771",
    "shrine_name": "동김녕 궤눼깃당"
  },
  {
    "ID": "4",
    "status": "resolved",
    "상태": "",
    "latitude": "33.55446325",
    "longitude": "126.7587613",
    "ownership_standardized": "국가",
    "validated_address_ko": "제주특별자치도 제주시 구좌읍 김녕리 571-2",
    "shrine_name": "동김녕리 성세깃당"
  },
  {
    "ID": "5",
    "status": "resolved",
    "상태": "",
    "latitude": "33.55486877",
    "longitude": "126.7428952",
    "ownership_standardized": "개인",
    "validated_address_ko": "제주특별자치도 제주시 구좌읍 김녕리 3417",
    "shrine_name": "서김녕 본향 노모리동산 일뤠당"
  },
  {
    "ID": "6",
    "status": "unresolved",
    "상태": "",
    "latitude": null,
    "longitude": null,
    "ownership_standardized": "미상",
    "validated_address_ko": null,
    "shrine_name": "서김녕리 서문하르방당"
  },
  {
    "ID": "7",
    "status": "resolved",
    "상태": "",
    "latitude": "33.5487733",
    "longitude": "126.7930352",
    "ownership_standardized": "국가",
    "validated_address_ko": "제주특별자치도 제주시 구좌읍 월정리 179-8",
    "shrine_name": "월정 본향 서당머체큰당"
  },
  {
    "ID": "8",
    "status": "unresolved",
    "상태": "",
    "latitude": null,
    "longitude": null,
    "ownership_standardized": "미상",
    "validated_address_ko": null,
    "shrine_name": "월정리 서당"
  },
  {
    "ID": "9",
    "status": "resolved",
    "상태": "",
    "latitude": "33.56031149",
    "longitude": "126.7909184",
    "ownership_standardized": "국가",
    "validated_address_ko": "제주특별자치도 제주시 구좌읍 월정리 774-4",
    "shrine_name": "월정리 베롱개 해신당"
  },
  {
    "ID": "10",
    "status": "resolved",
    "상태": "",
    "latitude": "33.55909319",
    "longitude": "126.8138032",
    "ownership_standardized": "국가",
    "validated_address_ko": "제주특별자치도 제주시 구좌읍 행원리 573-6",
    "shrine_name": "행원리 본향 큰당"
  },
  {
    "ID": "11",
    "status": "unresolved",
    "상태": "",
    "latitude": null,
    "longitude": null,
    "ownership_standardized": "미상",
    "validated_address_ko": null,
    "shrine_name": "행원리 남당"
  },
  {
    "ID": "12",
    "status": "resolved",
    "상태": "",
    "latitude": "33.5296553",
    "longitude": "126.819512",
    "ownership_standardized": "개인",
    "validated_address_ko": "제주특별자치도 제주시 구좌읍 한동리 2123",
    "shrine_name": "한동 본향 괴로본산국당"
  },
  {
    "ID": "13",
    "status": "resolved",
    "상태": "",
    "latitude": "33.5429614",
    "longitude": "126.8287006",
    "ownership_standardized": "국가",
    "validated_address_ko": null,
    "shrine_name": "한동 망애물 해신당"
  },
  {
    "ID": "14",
    "status": "resolved",
    "상태": "",
    "latitude": "33.52498801",
    "longitude": "126.8284467",
    "ownership_standardized": "공동",
    "validated_address_ko": "제주특별자치도 제주시 구좌읍 한동리 656",
    "shrine_name": "평대 본향 신선백관 하르방당"
  },
  {
    "ID": "15",
    "status": "resolved",
    "상태": "",
    "latitude": "33.52498801",
    "longitude": "126.8284467",
    "ownership_standardized": "공동",
    "validated_address_ko": "제주특별자치도 제주시 구좌읍 한동리 656",
    "shrine_name": "평대(서동) 본향수대깃당"
  },
  {
    "ID": "16",
    "status": "resolved",
    "상태": "",
    "latitude": "33.5244887",
    "longitude": "126.8436347",
    "ownership_standardized": "개인",
    "validated_address_ko": "제주특별자치도 제주시 구좌읍 평대리 975",
    "shrine_name": "평대(동동) 수대깃당"
  },
  {
    "ID": "17",
    "status": "unresolved",
    "상태": "",
    "latitude": null,
    "longitude": null,
    "ownership_standardized": "미상",
    "validated_address_ko": null,
    "shrine_name": "평대리 갯마리 일뤠당"
  },
  {
    "ID": "18",
    "status": "resolved",
    "상태": "",
    "latitude": "33.5144228",
    "longitude": "126.8545364",
    "ownership_standardized": "개인",
    "validated_address_ko": "제주특별자치도 제주시 구좌읍 세화리 1049-2",
    "shrine_name": "세화리 본향 천자또 산신당"
  },
  {
    "ID": "19",
    "status": "resolved",
    "상태": "",
    "latitude": "33.5144228",
    "longitude": "126.8545364",
    "ownership_standardized": "개인",
    "validated_address_ko": "제주특별자치도 제주시 구좌읍 세화리 1049-2",
    "shrine_name": "세화리 고는곶 일뤠"
  },
  {
    "ID": "20",
    "status": "unresolved",
    "상태": "",
    "latitude": null,
    "longitude": null,
    "ownership_standardized": "미상",
    "validated_address_ko": null,
    "shrine_name": "세화리 갯것할망당"
  },
  {
    "ID": "21",
    "status": "resolved",
    "상태": "",
    "latitude": "33.50828995",
    "longitude": "126.8694385",
    "ownership_standardized": "국가",
    "validated_address_ko": "제주특별자치도 제주시 구좌읍 상도리 202",
    "shrine_name": "상도리 본향 막음질 일뤠할망당"
  },
  {
    "ID": "22",
    "status": "resolved",
    "상태": "",
    "latitude": "33.52347663",
    "longitude": "126.8764855",
    "ownership_standardized": "개인",
    "validated_address_ko": "제주특별자치도 제주시 구좌읍 하도리 2884",
    "shrine_name": "하도리 본향 삼싱불도할망당"
  },
  {
    "ID": "23",
    "status": "resolved",
    "상태": "",
    "latitude": "33.52668379",
    "longitude": "126.8919084",
    "ownership_standardized": "국가",
    "validated_address_ko": "제주특별자치도 제주시 구좌읍 하도리 450-3",
    "shrine_name": "하도리 각시당"
  },
  {
    "ID": "24",
    "status": "resolved",
    "상태": "폐당",
    "latitude": "33.5258658",
    "longitude": "126.8841999",
    "ownership_standardized": "국가",
    "validated_address_ko": "제주특별자치도 제주시 구좌읍 하도리 1778",
    "shrine_name": "하도리 남당"
  },
  {
    "ID": "25",
    "status": "resolved",
    "상태": "",
    "latitude": "33.5249131",
    "longitude": "126.8656877",
    "ownership_standardized": "미상",
    "validated_address_ko": "제주특별자치도 제주시 구좌읍 면수길 52",
    "shrine_name": "하도리 면수동 본향 여씨불도할망당"
  },
  {
    "ID": "26",
    "status": "resolved",
    "상태": "",
    "latitude": "33.50515255",
    "longitude": "126.9099317",
    "ownership_standardized": "국가",
    "validated_address_ko": "제주특별자치도 제주시 구좌읍 종달리 70",
    "shrine_name": "종달 본향 오막개당"
  },
  {
    "ID": "27",
    "status": "resolved",
    "상태": "",
    "latitude": "33.5053014",
    "longitude": "126.9100125",
    "ownership_standardized": "개인",
    "validated_address_ko": "제주특별자치도 제주시 구좌읍 종달리 71",
    "shrine_name": "종달리 조개왓 틀목 일뤠당"
  },
  {
    "ID": "28",
    "status": "unresolved",
    "상태": "",
    "latitude": null,
    "longitude": null,
    "ownership_standardized": "미상",
    "validated_address_ko": null,
    "shrine_name": "종달리 생개납 돈짓당"
  },
  {
    "ID": "29",
    "status": "resolved",
    "상태": "",
    "latitude": "33.4672277",
    "longitude": "126.7771789",
    "ownership_standardized": "미상",
    "validated_address_ko": "제주특별자치도 제주시 구좌읍 송당리 산 200",
    "shrine_name": "송당리 본향 웃손당 당오름 백주할망당"
  },
  {
    "ID": "30",
    "status": "unresolved",
    "상태": "",
    "latitude": null,
    "longitude": null,
    "ownership_standardized": "개인",
    "validated_address_ko": null,
    "shrine_name": "송당리 상덕천 체오름 일뤠당"
  },
  {
    "ID": "31",
    "status": "resolved",
    "상태": "",
    "latitude": "33.46666713",
    "longitude": "126.7609249",
    "ownership_standardized": "개인",
    "validated_address_ko": "제주특별자치도 제주시 구좌읍 송당리 산 61",
    "shrine_name": "송당리 상덕천 체오름 산신당"
  },
  {
    "ID": "32",
    "status": "resolved",
    "상태": "폐당",
    "latitude": "33.49031202",
    "longitude": "126.7930606",
    "ownership_standardized": "미상",
    "validated_address_ko": "제주특별자치도 제주시 구좌읍 송당리 산 8-1",
    "shrine_name": "송당리 본향 알손당 고부니모루 소천국 하르방당"
  },
  {
    "ID": "33",
    "status": "resolved",
    "상태": "",
    "latitude": "33.50365474",
    "longitude": "126.7695643",
    "ownership_standardized": "개인",
    "validated_address_ko": "제주특별자치도 제주시 구좌읍 덕천리 289",
    "shrine_name": "하덕천리 본향 거멀 문국성 산신당"
  },
  {
    "ID": "34",
    "status": "resolved",
    "상태": "",
    "latitude": "33.49804473",
    "longitude": "126.7650136",
    "ownership_standardized": "법인",
    "validated_address_ko": "제주특별자치도 제주시 구좌읍 덕천리 산 49-3",
    "shrine_name": "하덕천리 웃산전 사라흘당"
  },
  {
    "ID": "35",
    "status": "resolved",
    "상태": "",
    "latitude": "33.53686592",
    "longitude": "126.618396",
    "ownership_standardized": "국가",
    "validated_address_ko": "제주특별자치도 제주시 조천읍 신촌리 2257",
    "shrine_name": "신촌리 본향 큰물머리 영등빌레당"
  },
  {
    "ID": "36",
    "status": "unresolved",
    "상태": "",
    "latitude": null,
    "longitude": null,
    "ownership_standardized": "미상",
    "validated_address_ko": null,
    "shrine_name": "신촌리 일뤠당"
  },
  {
    "ID": "37",
    "status": "unresolved",
    "상태": "",
    "latitude": null,
    "longitude": null,
    "ownership_standardized": "미상",
    "validated_address_ko": null,
    "shrine_name": "신촌리 동동네 일뤠낭거리 일뤠당"
  },
  {
    "ID": "38",
    "status": "resolved",
    "상태": "",
    "latitude": "33.54207512",
    "longitude": "126.6345629",
    "ownership_standardized": "국가",
    "validated_address_ko": "제주특별자치도 제주시 조천읍 조천리 2730-2",
    "shrine_name": "조천리(하동) 새콧할망당 (고망할망당)"
  },
  {
    "ID": "39",
    "status": "resolved",
    "상태": "",
    "latitude": "33.53652585",
    "longitude": "126.6455543",
    "ownership_standardized": "개인",
    "validated_address_ko": "제주특별자치도 제주시 조천읍 조천리 695",
    "shrine_name": "조천리 새당"
  },
  {
    "ID": "40",
    "status": "resolved",
    "상태": "폐당",
    "latitude": "33.5488871",
    "longitude": "126.6522151",
    "ownership_standardized": "국가",
    "validated_address_ko": "제주특별자치도 제주시 조천읍 신흥로2길 20-9",
    "shrine_name": "신흥리 본향 대방황수당"
  },
  {
    "ID": "41",
    "status": "resolved",
    "상태": "",
    "latitude": "33.548704",
    "longitude": "126.649033",
    "ownership_standardized": "국가",
    "validated_address_ko": "제주특별자치도 제주시 조천읍 신흥리 545-1",
    "shrine_name": "신흥리 볼래낭할망당"
  },
  {
    "ID": "42",
    "status": "unresolved",
    "상태": "",
    "latitude": null,
    "longitude": null,
    "ownership_standardized": "미상",
    "validated_address_ko": null,
    "shrine_name": "신흥리 서카름 가문이알 김씨조상당"
  },
  {
    "ID": "43",
    "status": "resolved",
    "상태": "",
    "latitude": "33.5456753",
    "longitude": "126.6598621",
    "ownership_standardized": "미상",
    "validated_address_ko": "제주특별자치도 제주시 조천읍 조함해안로 428-13",
    "shrine_name": "함덕리 본향 알카름 서물당"
  },
  {
    "ID": "44",
    "status": "resolved",
    "상태": "",
    "latitude": "33.53173998",
    "longitude": "126.6630462",
    "ownership_standardized": "국가",
    "validated_address_ko": "제주특별자치도 제주시 조천읍 함덕리 1698",
    "shrine_name": "함덕리존나니모루 일뤠당"
  },
  {
    "ID": "45",
    "status": "resolved",
    "상태": "폐당",
    "latitude": "33.5504485",
    "longitude": "126.6766617",
    "ownership_standardized": "개인",
    "validated_address_ko": "제주특별자치도 제주시 조천읍 함덕리 91",
    "shrine_name": "함덕리 머체 일뤠당"
  },
  {
    "ID": "46",
    "status": "resolved",
    "상태": "",
    "latitude": "33.53484353",
    "longitude": "126.6616907",
    "ownership_standardized": "미상",
    "validated_address_ko": "제주특별자치도 제주시 조천읍 함덕리 2547-1",
    "shrine_name": "함덕리 한양할망당"
  },
  {
    "ID": "47",
    "status": "resolved",
    "상태": "멸실",
    "latitude": "33.54327119",
    "longitude": "126.6597889",
    "ownership_standardized": "법인",
    "validated_address_ko": "제주특별자치도 제주시 조천읍 신북로 470",
    "shrine_name": "함덕리 지르 일뤠당"
  },
  {
    "ID": "48",
    "status": "resolved",
    "상태": "폐당",
    "latitude": "33.5432611",
    "longitude": "126.6575661",
    "ownership_standardized": "공동",
    "validated_address_ko": "제주특별자치도 제주시 조천읍 함대로 6",
    "shrine_name": "함덕리 서모오름 산신당"
  },
  {
    "ID": "49",
    "status": "resolved",
    "상태": "",
    "latitude": "33.5445345",
    "longitude": "126.6765073",
    "ownership_standardized": "개인",
    "validated_address_ko": "제주특별자치도 제주시 조천읍 함덕리 178-1",
    "shrine_name": "함덕리 문두낭당"
  },
  {
    "ID": "50",
    "status": "resolved",
    "상태": "",
    "latitude": "33.5508557",
    "longitude": "126.6931398",
    "ownership_standardized": "개인",
    "validated_address_ko": "제주특별자치도 제주시 조천읍 북촌7길 35",
    "shrine_name": "북촌리(뒷개) 본향 가릿당"
  },
  {
    "ID": "51",
    "status": "resolved",
    "상태": "",
    "latitude": "33.5430978",
    "longitude": "126.6935863",
    "ownership_standardized": "개인",
    "validated_address_ko": "제주특별자치도 제주시 조천읍 북촌리 1148",
    "shrine_name": "북촌리 당구들동산 당팟당"
  },
  {
    "ID": "52",
    "status": "resolved",
    "상태": "폐당",
    "latitude": "33.54714314",
    "longitude": "126.6917655",
    "ownership_standardized": "국가",
    "validated_address_ko": "제주특별자치도 제주시 조천읍 북촌리 2688",
    "shrine_name": "북촌리동카름 칠머리당"
  },
  {
    "ID": "53",
    "status": "resolved",
    "상태": "",
    "latitude": "33.51969276",
    "longitude": "126.6951243",
    "ownership_standardized": "개인",
    "validated_address_ko": "제주특별자치도 제주시 조천읍 선흘리 2661",
    "shrine_name": "선흘리 (알선흘) 본향 당동산 산신당"
  },
  {
    "ID": "54",
    "status": "resolved",
    "상태": "",
    "latitude": "33.5021471",
    "longitude": "126.716843",
    "ownership_standardized": "개인",
    "validated_address_ko": "제주특별자치도 제주시 조천읍 선흘리 261",
    "shrine_name": "선흘리 (웃선흘) 탈남밧 일뤠당"
  },
  {
    "ID": "55",
    "status": "resolved",
    "상태": "",
    "latitude": "33.5023167",
    "longitude": "126.6390196",
    "ownership_standardized": "미상",
    "validated_address_ko": "제주특별자치도 제주시 조천읍 와흘리 1274-1",
    "shrine_name": "와흘리 본향 한거리 하로산당"
  },
  {
    "ID": "56",
    "status": "resolved",
    "상태": "",
    "latitude": "33.4812527",
    "longitude": "126.6559656",
    "ownership_standardized": "개인",
    "validated_address_ko": "제주특별자치도 제주시 조천읍 와흘리 11",
    "shrine_name": "와흘리 고평동 본향 궷드르 산신당"
  },
  {
    "ID": "57",
    "status": "resolved",
    "상태": "",
    "latitude": "33.50053479",
    "longitude": "126.6554207",
    "ownership_standardized": "개인",
    "validated_address_ko": "제주특별자치도 제주시 조천읍 대흘리 2201",
    "shrine_name": "대흘리 본향 비지남밧 하로산당"
  },
  {
    "ID": "58",
    "status": "resolved",
    "상태": "폐당",
    "latitude": "33.49110111",
    "longitude": "126.6862131",
    "ownership_standardized": "국가",
    "validated_address_ko": "제주특별자치도 제주시 조천읍 와산리 694-1",
    "shrine_name": "와산리 하르방당 베락당"
  },
  {
    "ID": "59",
    "status": "resolved",
    "상태": "",
    "latitude": "33.48057805",
    "longitude": "126.6875951",
    "ownership_standardized": "미상",
    "validated_address_ko": "제주특별자치도 제주시 조천읍 와산리 489-2",
    "shrine_name": "와산리 본향 당오름 불돗당"
  },
  {
    "ID": "60",
    "status": "resolved",
    "상태": "",
    "latitude": "33.4906863",
    "longitude": "126.691462",
    "ownership_standardized": "개인",
    "validated_address_ko": "제주특별자치도 제주시 조천읍 와산리 145",
    "shrine_name": "와산리 당새미 토광물 산신당"
  },
  {
    "ID": "61",
    "status": "resolved",
    "상태": "",
    "latitude": "33.48654447",
    "longitude": "126.6773135",
    "ownership_standardized": "개인",
    "validated_address_ko": "제주특별자치도 제주시 조천읍 와산리 1471",
    "shrine_name": "와산리 엄낭굴 철산이도 산신당"
  },
  {
    "ID": "62",
    "status": "resolved",
    "상태": "",
    "latitude": "33.48846825",
    "longitude": "126.683975",
    "ownership_standardized": "개인",
    "validated_address_ko": "제주특별자치도 제주시 조천읍 와산리 573",
    "shrine_name": "와산리 골왓술 산신당"
  },
  {
    "ID": "63",
    "status": "resolved",
    "상태": "",
    "latitude": "33.48500282",
    "longitude": "126.6903896",
    "ownership_standardized": "개인",
    "validated_address_ko": "제주특별자치도 제주시 조천읍 와산리 195",
    "shrine_name": "와산리 웃질왓 감낭밧 한씨조상당"
  },
  {
    "ID": "64",
    "status": "resolved",
    "상태": "",
    "latitude": "33.44259837",
    "longitude": "126.679111",
    "ownership_standardized": "공동",
    "validated_address_ko": "제주특별자치도 제주시 조천읍 교래리 401",
    "shrine_name": "교래리 본향 리하로산당"
  },
  {
    "ID": "65",
    "status": "resolved",
    "상태": "폐당",
    "latitude": "33.43354748",
    "longitude": "126.6747769",
    "ownership_standardized": "법인",
    "validated_address_ko": "제주특별자치도 제주시 조천읍 비자림로 606",
    "shrine_name": "교래리 누룩남도 일뤠당"
  },
  {
    "ID": "66",
    "status": "resolved",
    "상태": "",
    "latitude": "33.42825566",
    "longitude": "126.3099969",
    "ownership_standardized": "개인",
    "validated_address_ko": "제주특별자치도 제주시 애월읍 봉성리 3683",
    "shrine_name": "봉성리 본향 구머리 송씨할망당"
  },
  {
    "ID": "67",
    "status": "resolved",
    "상태": "",
    "latitude": "33.43960635",
    "longitude": "126.3317713",
    "ownership_standardized": "개인",
    "validated_address_ko": "제주특별자치도 제주시 애월읍 납읍리 1721",
    "shrine_name": "납읍리 본향 바구사니우영 돗당"
  },
  {
    "ID": "68",
    "status": "resolved",
    "상태": "",
    "latitude": "33.3727616",
    "longitude": "126.3846313",
    "ownership_standardized": "국가",
    "validated_address_ko": "제주특별자치도 제주시 애월읍 어음리 산 20",
    "shrine_name": "납읍리 홍골당"
  },
  {
    "ID": "69",
    "status": "resolved",
    "상태": "",
    "latitude": "33.41965358",
    "longitude": "126.3325694",
    "ownership_standardized": "미상",
    "validated_address_ko": "제주특별자치도 제주시 애월읍 어음리 3708-2",
    "shrine_name": "어음1리 본향 개나ᄆᆞ들비멘잇당"
  },
  {
    "ID": "70",
    "status": "resolved",
    "상태": "",
    "latitude": "33.40067362",
    "longitude": "126.337401",
    "ownership_standardized": "공동",
    "validated_address_ko": "제주특별자치도 제주시 애월읍 어음리 3063-1",
    "shrine_name": "어음2리 본향 몽둥이왓 돔배물 축일당"
  },
  {
    "ID": "71",
    "status": "resolved",
    "상태": "",
    "latitude": "33.40826991",
    "longitude": "126.3319025",
    "ownership_standardized": "개인",
    "validated_address_ko": "제주특별자치도 제주시 애월읍 어음리 3379-3",
    "shrine_name": "어음1 리 본향 상메초왓 송씨할망당"
  },
  {
    "ID": "72",
    "status": "resolved",
    "상태": "",
    "latitude": "33.44186394",
    "longitude": "126.3793088",
    "ownership_standardized": "개인",
    "validated_address_ko": "제주특별자치도 제주시 애월읍 장전리 1636-2",
    "shrine_name": "소길리 당팟 일뤠할망당"
  },
  {
    "ID": "73",
    "status": "resolved",
    "상태": "폐당",
    "latitude": "33.48357644",
    "longitude": "126.4104482",
    "ownership_standardized": "공동",
    "validated_address_ko": "제주특별자치도 제주시 애월읍 하귀1리 628",
    "shrine_name": "하귀1 리( 동귀) 본향 제신당"
  },
  {
    "ID": "74",
    "status": "resolved",
    "상태": "폐당",
    "latitude": "33.4859229",
    "longitude": "126.4084946",
    "ownership_standardized": "개인",
    "validated_address_ko": "제주특별자치도 제주시 애월읍 하귀1리 1622",
    "shrine_name": "하귀1 리 해신당"
  },
  {
    "ID": "75",
    "status": "resolved",
    "상태": "",
    "latitude": "33.4724583",
    "longitude": "126.3577365",
    "ownership_standardized": "국가",
    "validated_address_ko": "제주특별자치도 제주시 애월읍 고내리 11-1",
    "shrine_name": "고내리 본향 큰당"
  },
  {
    "ID": "76",
    "status": "resolved",
    "상태": "",
    "latitude": "33.472735",
    "longitude": "126.3505204",
    "ownership_standardized": "개인",
    "validated_address_ko": "제주특별자치도 제주시 애월읍 고내리 81",
    "shrine_name": "고내리 오름허릿당"
  },
  {
    "ID": "77",
    "status": "unresolved",
    "상태": "폐당",
    "latitude": null,
    "longitude": null,
    "ownership_standardized": "미상",
    "validated_address_ko": null,
    "shrine_name": "고내리 남당"
  },
  {
    "ID": "78",
    "status": "resolved",
    "상태": "",
    "latitude": "33.45395667",
    "longitude": "126.351779",
    "ownership_standardized": "미상",
    "validated_address_ko": "제주특별자치도 제주시 애월읍 하가리 846-1",
    "shrine_name": "상․ 하가리 본향 오당빌레 할망당"
  },
  {
    "ID": "79",
    "status": "resolved",
    "상태": "",
    "latitude": "33.4551879",
    "longitude": "126.3431048",
    "ownership_standardized": "공동",
    "validated_address_ko": "제주특별자치도 제주시 애월읍 고내리 산 13-1",
    "shrine_name": "상가리 큰신머들 새당하르방당"
  },
  {
    "ID": "80",
    "status": "resolved",
    "상태": "",
    "latitude": "33.4790176",
    "longitude": "126.3976001",
    "ownership_standardized": "국가",
    "validated_address_ko": "제주특별자치도 제주시 애월읍 하귀2리 2416-1",
    "shrine_name": "하귀리 본향 돌코릿당"
  },
  {
    "ID": "81",
    "status": "resolved",
    "상태": "",
    "latitude": "33.48667201",
    "longitude": "126.3921157",
    "ownership_standardized": "미상",
    "validated_address_ko": "제주특별자치도 제주시 애월읍 가문동길 47",
    "shrine_name": "하귀리 해신당"
  },
  {
    "ID": "82",
    "status": "resolved",
    "상태": "",
    "latitude": "33.4164563",
    "longitude": "126.4122987",
    "ownership_standardized": "미상",
    "validated_address_ko": "제주특별자치도 제주시 애월읍 유수암리 191",
    "shrine_name": "상귀리 본향 황다리궤당"
  },
  {
    "ID": "83",
    "status": "resolved",
    "상태": "",
    "latitude": "33.47526835",
    "longitude": "126.366033",
    "ownership_standardized": "개인",
    "validated_address_ko": "제주특별자치도 제주시 애월읍 신엄리 2672-3",
    "shrine_name": "신엄리 본향 당빌레왓 송씨할망당"
  },
  {
    "ID": "84",
    "status": "resolved",
    "상태": "",
    "latitude": "33.47728995",
    "longitude": "126.378291",
    "ownership_standardized": "미상",
    "validated_address_ko": "제주특별자치도 제주시 애월읍 구엄동1길 28",
    "shrine_name": "구엄리 본향 모감빌레 송씨할망당"
  },
  {
    "ID": "85",
    "status": "resolved",
    "상태": "",
    "latitude": "33.4681218",
    "longitude": "126.3841023",
    "ownership_standardized": "개인",
    "validated_address_ko": "제주특별자치도 제주시 애월읍 수산리 1778-1",
    "shrine_name": "수산리 본향 당팟 서목당"
  },
  {
    "ID": "86",
    "status": "resolved",
    "상태": "",
    "latitude": "33.46264943",
    "longitude": "126.3659726",
    "ownership_standardized": "개인",
    "validated_address_ko": "제주특별자치도 제주시 애월읍 용흥4길 9",
    "shrine_name": "용흥리 본향 진빌레 일뤠당"
  },
  {
    "ID": "87",
    "status": "resolved",
    "상태": "",
    "latitude": "33.45078379",
    "longitude": "126.3055372",
    "ownership_standardized": "미상",
    "validated_address_ko": "제주특별자치도 제주시 애월읍 곽지리 1565",
    "shrine_name": "금성리 축일할망당"
  },
  {
    "ID": "88",
    "status": "resolved",
    "상태": "",
    "latitude": "33.44683424",
    "longitude": "126.3004408",
    "ownership_standardized": "개인",
    "validated_address_ko": "제주특별자치도 제주시 애월읍 금성리 499",
    "shrine_name": "금성리 본향 개똥밧당"
  },
  {
    "ID": "89",
    "status": "resolved",
    "상태": "",
    "latitude": "33.44832509",
    "longitude": "126.3150218",
    "ownership_standardized": "개인",
    "validated_address_ko": "제주특별자치도 제주시 애월읍 곽지리 1026",
    "shrine_name": "곽지리 송씨 일뤠할망당"
  },
  {
    "ID": "90",
    "status": "resolved",
    "상태": "폐당",
    "latitude": "33.46272679",
    "longitude": "126.3237001",
    "ownership_standardized": "개인",
    "validated_address_ko": "제주특별자치도 제주시 애월읍 애월리 556",
    "shrine_name": "애월리 굽은돌알 개당"
  },
  {
    "ID": "91",
    "status": "resolved",
    "상태": "",
    "latitude": "33.4567812",
    "longitude": "126.3320372",
    "ownership_standardized": "국가",
    "validated_address_ko": "제주특별자치도 제주시 애월읍 애월리 181",
    "shrine_name": "애월리 해신당"
  },
  {
    "ID": "92",
    "status": "resolved",
    "상태": "",
    "latitude": "33.44974686",
    "longitude": "126.3919434",
    "ownership_standardized": "개인",
    "validated_address_ko": "제주특별자치도 제주시 애월읍 장전리 402",
    "shrine_name": "장전리 본향 능선이 고지물 일뤠할망당"
  },
  {
    "ID": "93",
    "status": "resolved",
    "상태": "",
    "latitude": "33.46282392",
    "longitude": "126.3685222",
    "ownership_standardized": "국가",
    "validated_address_ko": "제주특별자치도 제주시 애월읍 신엄리 3208",
    "shrine_name": "중엄리 본향 송씨일뤠당"
  },
  {
    "ID": "94",
    "status": "resolved",
    "상태": "",
    "latitude": "33.46534963",
    "longitude": "126.423849",
    "ownership_standardized": "미상",
    "validated_address_ko": "제주특별자치도 제주시 애월읍 광령리 3808-2",
    "shrine_name": "고성리 동구시물 마께왓당"
  },
  {
    "ID": "95",
    "status": "resolved",
    "상태": "",
    "latitude": "33.45255943",
    "longitude": "126.4217131",
    "ownership_standardized": "개인",
    "validated_address_ko": "제주특별자치도 제주시 애월읍 광령리 4035-4",
    "shrine_name": "고성리 장털 일뤠당"
  },
  {
    "ID": "96",
    "status": "resolved",
    "상태": "",
    "latitude": "33.46148365",
    "longitude": "126.4461752",
    "ownership_standardized": "미상",
    "validated_address_ko": "제주특별자치도 제주시 애월읍 광령리 36-6",
    "shrine_name": "광령1 리 본향 자운당"
  },
  {
    "ID": "97",
    "status": "resolved",
    "상태": "",
    "latitude": "33.45803442",
    "longitude": "126.433662",
    "ownership_standardized": "개인",
    "validated_address_ko": "제주특별자치도 제주시 애월읍 광령리 2367",
    "shrine_name": "광령2리 이숭굴 하르방당"
  },
  {
    "ID": "98",
    "status": "resolved",
    "상태": "",
    "latitude": "33.44856444",
    "longitude": "126.4327547",
    "ownership_standardized": "개인",
    "validated_address_ko": "제주특별자치도 제주시 애월읍 광령리 2524",
    "shrine_name": "광령2리 이숭굴 할망당"
  },
  {
    "ID": "99",
    "status": "resolved",
    "상태": "",
    "latitude": "33.46135687",
    "longitude": "126.4264817",
    "ownership_standardized": "개인",
    "validated_address_ko": "제주특별자치도 제주시 애월읍 광령리 3356",
    "shrine_name": "광령3리 중굴당"
  },
  {
    "ID": "100",
    "status": "resolved",
    "상태": "",
    "latitude": "33.41523594",
    "longitude": "126.4490009",
    "ownership_standardized": "개인",
    "validated_address_ko": "제주특별자치도 제주시 애월읍 광령리 596",
    "shrine_name": "광령리 마씨 미륵당"
  },
  {
    "ID": "101",
    "status": "unresolved",
    "상태": "",
    "latitude": null,
    "longitude": null,
    "ownership_standardized": "미상",
    "validated_address_ko": null,
    "shrine_name": "금덕리 당오름밧 하르방당"
  },
  {
    "ID": "102",
    "status": "resolved",
    "상태": "",
    "latitude": "33.4280623",
    "longitude": "126.3991953",
    "ownership_standardized": "개인",
    "validated_address_ko": "제주특별자치도 제주시 애월읍 유수암리 1456",
    "shrine_name": "금덕리 남당밧 할망당"
  },
  {
    "ID": "103",
    "status": "resolved",
    "상태": "",
    "latitude": "33.4164563",
    "longitude": "126.4122987",
    "ownership_standardized": "개인",
    "validated_address_ko": "제주특별자치도 제주시 애월읍 유수암리 191",
    "shrine_name": "유수암 본향 당아진밧 송씨할망당"
  },
  {
    "ID": "104",
    "status": "resolved",
    "상태": "",
    "latitude": "33.3866813",
    "longitude": "126.2234927",
    "ownership_standardized": "미상",
    "validated_address_ko": "제주특별자치도 제주시 한림읍 금능리 1631",
    "shrine_name": "금릉 본향 소왕물 술일할망당"
  },
  {
    "ID": "105",
    "status": "resolved",
    "상태": "",
    "latitude": "33.3866813",
    "longitude": "126.2234927",
    "ownership_standardized": "미상",
    "validated_address_ko": "제주특별자치도 제주시 한림읍 금능리 1631",
    "shrine_name": "금릉 본향 연딧가름 영감당"
  },
  {
    "ID": "106",
    "status": "resolved",
    "상태": "",
    "latitude": "33.3960341",
    "longitude": "126.2451461",
    "ownership_standardized": "개인",
    "validated_address_ko": "제주특별자치도 제주시 한림읍 협재리 1844-1",
    "shrine_name": "협재 본향 웃가름 축일당"
  },
  {
    "ID": "107",
    "status": "resolved",
    "상태": "",
    "latitude": "33.39905425",
    "longitude": "126.2442591",
    "ownership_standardized": "미상",
    "validated_address_ko": "제주특별자치도 제주시 한림읍 협재리 1458",
    "shrine_name": "협재리 뒷당"
  },
  {
    "ID": "108",
    "status": "partial",
    "상태": "",
    "latitude": null,
    "longitude": null,
    "ownership_standardized": "미상",
    "validated_address_ko": null,
    "shrine_name": "한수리 본향 개당"
  },
  {
    "ID": "109",
    "status": "resolved",
    "상태": "",
    "latitude": "33.4235244",
    "longitude": "126.2608093",
    "ownership_standardized": "미상",
    "validated_address_ko": "제주특별자치도 제주시 한림읍 한수리 914-1",
    "shrine_name": "한수리 대섬밧 하르방당"
  },
  {
    "ID": "110",
    "status": "resolved",
    "상태": "",
    "latitude": "33.4430623",
    "longitude": "126.2912451",
    "ownership_standardized": "국가",
    "validated_address_ko": "제주특별자치도 제주시 한림읍 귀덕리 1031",
    "shrine_name": "귀덕 본향 축일할망당"
  },
  {
    "ID": "111",
    "status": "resolved",
    "상태": "",
    "latitude": "33.36217278",
    "longitude": "126.271175",
    "ownership_standardized": "국가",
    "validated_address_ko": "제주특별자치도 제주시 한림읍 상명리 898",
    "shrine_name": "상명리 본향 느지리 케인틈 축일할망당"
  },
  {
    "ID": "112",
    "status": "resolved",
    "상태": "",
    "latitude": "33.40626155",
    "longitude": "126.2827013",
    "ownership_standardized": "개인",
    "validated_address_ko": "제주특별자치도 제주시 한림읍 상대리 4132-3",
    "shrine_name": "상대리 본향 고한이 축일당"
  },
  {
    "ID": "113",
    "status": "resolved",
    "상태": "",
    "latitude": "33.3887175",
    "longitude": "126.2692397",
    "ownership_standardized": "개인",
    "validated_address_ko": "제주특별자치도 제주시 한림읍 동명리 1109",
    "shrine_name": "명월 본향 백문이옥 하원당"
  },
  {
    "ID": "114",
    "status": "resolved",
    "상태": "",
    "latitude": "33.38294024",
    "longitude": "126.2752192",
    "ownership_standardized": "국가",
    "validated_address_ko": "제주특별자치도 제주시 한림읍 명월리 2223",
    "shrine_name": "명월 박닛물 축일당"
  },
  {
    "ID": "115",
    "status": "resolved",
    "상태": "",
    "latitude": "33.39911781",
    "longitude": "126.259407",
    "ownership_standardized": "개인",
    "validated_address_ko": "제주특별자치도 제주시 한림읍 옹포리 828-1",
    "shrine_name": "명월 본향 서문하르방당"
  },
  {
    "ID": "116",
    "status": "resolved",
    "상태": "폐당",
    "latitude": "33.39852827",
    "longitude": "126.2572521",
    "ownership_standardized": "국가",
    "validated_address_ko": "제주특별자치도 제주시 한림읍 월계로 74",
    "shrine_name": "명월 본향 여드레할망당"
  },
  {
    "ID": "117",
    "status": "resolved",
    "상태": "",
    "latitude": "33.39917556",
    "longitude": "126.2734446",
    "ownership_standardized": "개인",
    "validated_address_ko": "제주특별자치도 제주시 한림읍 동명리 751",
    "shrine_name": "동명리 일뤠당"
  },
  {
    "ID": "118",
    "status": "resolved",
    "상태": "폐당",
    "latitude": "33.39230985",
    "longitude": "126.2724754",
    "ownership_standardized": "공동",
    "validated_address_ko": "제주특별자치도 제주시 한림읍 동명리 958",
    "shrine_name": "동명리 술일할망당"
  },
  {
    "ID": "119",
    "status": "unresolved",
    "상태": "",
    "latitude": null,
    "longitude": null,
    "ownership_standardized": "미상",
    "validated_address_ko": null,
    "shrine_name": "금악리 아미당"
  },
  {
    "ID": "120",
    "status": "resolved",
    "상태": "",
    "latitude": "33.3457059",
    "longitude": "126.3032612",
    "ownership_standardized": "공동",
    "validated_address_ko": "제주특별자치도 제주시 한림읍 금악리 1359",
    "shrine_name": "금악 본향 신모들 축일할망당"
  },
  {
    "ID": "121",
    "status": "resolved",
    "상태": "",
    "latitude": "33.3543665",
    "longitude": "126.3291196",
    "ownership_standardized": "개인",
    "validated_address_ko": "제주특별자치도 제주시 한림읍 금악리 161",
    "shrine_name": "금악 본향 당동산 오일하르방당"
  },
  {
    "ID": "122",
    "status": "resolved",
    "상태": "",
    "latitude": "33.3824987",
    "longitude": "126.2372933",
    "ownership_standardized": "국가",
    "validated_address_ko": "제주특별자치도 제주시 한림읍 협재리 산 150-11",
    "shrine_name": "비양리 본향 술일당"
  },
  {
    "ID": "123",
    "status": "resolved",
    "상태": "",
    "latitude": "33.30870864",
    "longitude": "126.1769247",
    "ownership_standardized": "공동",
    "validated_address_ko": "제주특별자치도 제주시 한경면 고산리 2640",
    "shrine_name": "고산리 본향 당오름 당목잇당"
  },
  {
    "ID": "124",
    "status": "resolved",
    "상태": "",
    "latitude": "33.3005832",
    "longitude": "126.1973333",
    "ownership_standardized": "개인",
    "validated_address_ko": "제주특별자치도 제주시 한경면 고산리 361-2",
    "shrine_name": "고산리 자구내 갯그리 할망당"
  },
  {
    "ID": "125",
    "status": "resolved",
    "상태": "폐당",
    "latitude": "33.33094063",
    "longitude": "126.1748121",
    "ownership_standardized": "개인",
    "validated_address_ko": "제주특별자치도 제주시 한경면 용수리 1546",
    "shrine_name": "용수리 본향 골새왓 축일할망당"
  },
  {
    "ID": "126",
    "status": "resolved",
    "상태": "폐당",
    "latitude": "33.3242436",
    "longitude": "126.1660367",
    "ownership_standardized": "국가",
    "validated_address_ko": "제주특별자치도 제주시 한경면 용수리 4136-3",
    "shrine_name": "용수리 펄낭 해신당"
  },
  {
    "ID": "127",
    "status": "unresolved",
    "상태": "",
    "latitude": null,
    "longitude": null,
    "ownership_standardized": "미상",
    "validated_address_ko": null,
    "shrine_name": "두모․ 신창 본향 거머들 축일당"
  },
  {
    "ID": "128",
    "status": "unresolved",
    "상태": "",
    "latitude": null,
    "longitude": null,
    "ownership_standardized": "미상",
    "validated_address_ko": null,
    "shrine_name": "두모리 해신당"
  },
  {
    "ID": "129",
    "status": "unresolved",
    "상태": "",
    "latitude": null,
    "longitude": null,
    "ownership_standardized": "미상",
    "validated_address_ko": null,
    "shrine_name": "신창리 돈짓당"
  },
  {
    "ID": "130",
    "status": "resolved",
    "상태": "",
    "latitude": "33.35142937",
    "longitude": "126.1958391",
    "ownership_standardized": "국가",
    "validated_address_ko": "제주특별자치도 제주시 한경면 금등리 1008",
    "shrine_name": "금등리 본향 손드물 축일할망당"
  },
  {
    "ID": "131",
    "status": "resolved",
    "상태": "",
    "latitude": "33.35964451",
    "longitude": "126.2049582",
    "ownership_standardized": "개인",
    "validated_address_ko": "제주특별자치도 제주시 한경면 판포리 2532-1",
    "shrine_name": "판포리 본향 오일하르방당"
  },
  {
    "ID": "132",
    "status": "resolved",
    "상태": "",
    "latitude": "33.33167653",
    "longitude": "126.2303438",
    "ownership_standardized": "개인",
    "validated_address_ko": "제주특별자치도 제주시 한경면 조수리 248-1",
    "shrine_name": "조수리 본향 삼대바지 매와지 축일할망당"
  },
  {
    "ID": "133",
    "status": "resolved",
    "상태": "",
    "latitude": "33.32890083",
    "longitude": "126.2265048",
    "ownership_standardized": "법인",
    "validated_address_ko": "제주특별자치도 제주시 한경면 낙천리 1883",
    "shrine_name": "낙천리 본향 소록낭들 오일하르방당"
  },
  {
    "ID": "134",
    "status": "resolved",
    "상태": "",
    "latitude": "33.3356319",
    "longitude": "126.2490842",
    "ownership_standardized": "개인",
    "validated_address_ko": "제주특별자치도 제주시 한경면 저지리 1892-3",
    "shrine_name": "저지리 본향 당멀 허릿당"
  },
  {
    "ID": "135",
    "status": "resolved",
    "상태": "폐당",
    "latitude": "33.3234273",
    "longitude": "126.2186697",
    "ownership_standardized": "국가",
    "validated_address_ko": "제주특별자치도 제주시 한경면 조수리 2406",
    "shrine_name": "저지리 용선리 일뤠하르방당"
  },
  {
    "ID": "136",
    "status": "resolved",
    "상태": "폐당",
    "latitude": "33.33975830000001",
    "longitude": "126.2402253",
    "ownership_standardized": "개인",
    "validated_address_ko": "제주특별자치도 제주시 한경면 용금로 583-12",
    "shrine_name": "조수 종애물 본향 당밧 여드레할망당"
  },
  {
    "ID": "137",
    "status": "resolved",
    "상태": "",
    "latitude": "33.5081637",
    "longitude": "126.5150147",
    "ownership_standardized": "국가",
    "validated_address_ko": "제주특별자치도 제주시 용담로20길 11",
    "shrine_name": "용담2동 한두기 본향 시락당"
  },
  {
    "ID": "138",
    "status": "resolved",
    "상태": "",
    "latitude": "33.5143007",
    "longitude": "126.5093714",
    "ownership_standardized": "국가",
    "validated_address_ko": "제주특별자치도 제주시 용담로 65",
    "shrine_name": "용담3동 다끄내 본향궁당"
  },
  {
    "ID": "139",
    "status": "resolved",
    "상태": "",
    "latitude": "33.5202756",
    "longitude": "126.4943374",
    "ownership_standardized": "국가",
    "validated_address_ko": "제주특별자치도 제주시 용담삼동 2292-29",
    "shrine_name": "용담3동 어영연딧당"
  },
  {
    "ID": "140",
    "status": "resolved",
    "상태": "",
    "latitude": "33.51782070000001",
    "longitude": "126.5003523",
    "ownership_standardized": "국가",
    "validated_address_ko": "제주특별자치도 제주시 서해안로 587",
    "shrine_name": "용담3동 다끄내 해신당"
  },
  {
    "ID": "141",
    "status": "resolved",
    "상태": "",
    "latitude": "33.506555",
    "longitude": "126.4683257",
    "ownership_standardized": "개인",
    "validated_address_ko": "제주특별자치도 제주시 도두일동 1745",
    "shrine_name": "도두1 동 본향 오름허릿당"
  },
  {
    "ID": "142",
    "status": "unresolved",
    "상태": "",
    "latitude": null,
    "longitude": null,
    "ownership_standardized": "미상",
    "validated_address_ko": null,
    "shrine_name": "도두2동 본향 진불래원 왕돌앞당"
  },
  {
    "ID": "143",
    "status": "resolved",
    "상태": "",
    "latitude": "33.5094428",
    "longitude": "126.4795955",
    "ownership_standardized": "국가",
    "validated_address_ko": "제주특별자치도 제주시 도두이동 836-9",
    "shrine_name": "신사수동 본향 랭이물당"
  },
  {
    "ID": "144",
    "status": "resolved",
    "상태": "",
    "latitude": "33.5034782",
    "longitude": "126.461139",
    "ownership_standardized": "국가",
    "validated_address_ko": "제주특별자치도 제주시 이호일동 331",
    "shrine_name": "이호1 동 본향 붉은왕돌 할망당"
  },
  {
    "ID": "145",
    "status": "resolved",
    "상태": "",
    "latitude": "33.494586",
    "longitude": "126.4477749",
    "ownership_standardized": "국가",
    "validated_address_ko": "제주특별자치도 제주시 일주서로 7499",
    "shrine_name": "이호2동 본향 남당"
  },
  {
    "ID": "146",
    "status": "resolved",
    "상태": "",
    "latitude": "33.4949877",
    "longitude": "126.4684013",
    "ownership_standardized": "개인",
    "validated_address_ko": "제주특별자치도 제주시 이호이동 1-4",
    "shrine_name": "이호2동 본향 소왕상시당"
  },
  {
    "ID": "147",
    "status": "unresolved",
    "상태": "",
    "latitude": null,
    "longitude": null,
    "ownership_standardized": "국가",
    "validated_address_ko": null,
    "shrine_name": "내도동 본향 웃당"
  },
  {
    "ID": "148",
    "status": "unresolved",
    "상태": "",
    "latitude": null,
    "longitude": null,
    "ownership_standardized": "국가",
    "validated_address_ko": null,
    "shrine_name": "내도동 알당"
  },
  {
    "ID": "149",
    "status": "resolved",
    "상태": "",
    "latitude": "33.495124",
    "longitude": "126.4394966",
    "ownership_standardized": "개인",
    "validated_address_ko": "제주특별자치도 제주시 내도동 604-1",
    "shrine_name": "내도동 당팟 할망당"
  },
  {
    "ID": "150",
    "status": "resolved",
    "상태": "",
    "latitude": "33.4886599",
    "longitude": "126.4276141",
    "ownership_standardized": "국가",
    "validated_address_ko": "제주특별자치도 제주시 우령8길 27",
    "shrine_name": "외도1 동 본향 우렝이 돗당"
  },
  {
    "ID": "151",
    "status": "resolved",
    "상태": "폐당",
    "latitude": "33.4903776",
    "longitude": "126.4531119",
    "ownership_standardized": "개인",
    "validated_address_ko": "제주특별자치도 제주시 이호이동 1312",
    "shrine_name": "도평동 본향 대통밧당"
  },
  {
    "ID": "152",
    "status": "resolved",
    "상태": "",
    "latitude": "33.4903776",
    "longitude": "126.4531119",
    "ownership_standardized": "개인",
    "validated_address_ko": "제주특별자치도 제주시 이호이동 1312",
    "shrine_name": "광평동 본향 당팟 세경할망당"
  },
  {
    "ID": "153",
    "status": "resolved",
    "상태": "폐당",
    "latitude": "33.4642333",
    "longitude": "126.4723448",
    "ownership_standardized": "공동",
    "validated_address_ko": "제주특별자치도 제주시 노형동 1906",
    "shrine_name": "해안동 본향 절물동산 하르방당"
  },
  {
    "ID": "154",
    "status": "resolved",
    "상태": "",
    "latitude": "33.4581841",
    "longitude": "126.4514216",
    "ownership_standardized": "개인",
    "validated_address_ko": "제주특별자치도 제주시 해안동 2431",
    "shrine_name": "해안동 본향 독승굴 일뤠할망당"
  },
  {
    "ID": "155",
    "status": "resolved",
    "상태": "",
    "latitude": "33.4912212",
    "longitude": "126.4814028",
    "ownership_standardized": "국가",
    "validated_address_ko": "제주특별자치도 제주시 연동 1955-5",
    "shrine_name": "연동 본향 다랑굿 막개낭당"
  },
  {
    "ID": "156",
    "status": "resolved",
    "상태": "",
    "latitude": "33.4748126",
    "longitude": "126.4956948",
    "ownership_standardized": "개인",
    "validated_address_ko": "제주특별자치도 제주시 연동 산 28",
    "shrine_name": "연동 본향 능당"
  },
  {
    "ID": "157",
    "status": "resolved",
    "상태": "",
    "latitude": "33.4968326",
    "longitude": "126.5113078",
    "ownership_standardized": "개인",
    "validated_address_ko": "제주특별자치도 제주시 오라이동 1186-2",
    "shrine_name": "오라동 본향 방애왓 내왓당"
  },
  {
    "ID": "158",
    "status": "resolved",
    "상태": "",
    "latitude": "33.4680967",
    "longitude": "126.5126519",
    "ownership_standardized": "개인",
    "validated_address_ko": "제주특별자치도 제주시 오라이동 61-32",
    "shrine_name": "오라동 정실 (도노미) 본향"
  },
  {
    "ID": "159",
    "status": "resolved",
    "상태": "",
    "latitude": "33.465667",
    "longitude": "126.5280789",
    "ownership_standardized": "국가",
    "validated_address_ko": "제주특별자치도 제주시 오등동 750",
    "shrine_name": "오등동 본향 오드싱당"
  },
  {
    "ID": "160",
    "status": "resolved",
    "상태": "",
    "latitude": "33.46477100000001",
    "longitude": "126.532362",
    "ownership_standardized": "개인",
    "validated_address_ko": "제주특별자치도 제주시 오등동 799",
    "shrine_name": "오등동 병다동 본향 다싯당"
  },
  {
    "ID": "161",
    "status": "resolved",
    "상태": "",
    "latitude": "33.455778",
    "longitude": "126.5381972",
    "ownership_standardized": "법인",
    "validated_address_ko": "제주특별자치도 제주시 오등동 305-1",
    "shrine_name": "오등동 죽성 본향 설새밋당"
  },
  {
    "ID": "162",
    "status": "resolved",
    "상태": "폐당",
    "latitude": "33.5011072",
    "longitude": "126.5559742",
    "ownership_standardized": "개인",
    "validated_address_ko": "제주특별자치도 제주시 화북이동 5328",
    "shrine_name": "아라동 본향 간드락 할망당"
  },
  {
    "ID": "163",
    "status": "resolved",
    "상태": "폐당",
    "latitude": "33.5015477",
    "longitude": "126.5558887",
    "ownership_standardized": "개인",
    "validated_address_ko": "제주특별자치도 제주시 장수물길 58-9",
    "shrine_name": "아라동 본향 간드락 하르방당"
  },
  {
    "ID": "164",
    "status": "resolved",
    "상태": "",
    "latitude": "33.4871593",
    "longitude": "126.5231602",
    "ownership_standardized": "공동",
    "validated_address_ko": "제주특별자치도 제주시 도남동 586",
    "shrine_name": "도남동 본향 백질당"
  },
  {
    "ID": "165",
    "status": "resolved",
    "상태": "",
    "latitude": "33.5189474",
    "longitude": "126.5487564",
    "ownership_standardized": "국가",
    "validated_address_ko": "제주특별자치도 제주시 건입동 387-12",
    "shrine_name": "건입동 본향 산지 칠머리당"
  },
  {
    "ID": "166",
    "status": "resolved",
    "상태": "",
    "latitude": "33.5213774",
    "longitude": "126.571556",
    "ownership_standardized": "개인",
    "validated_address_ko": "제주특별자치도 제주시 화북일동 1392",
    "shrine_name": "화북1 동 윤동지영감당"
  },
  {
    "ID": "167",
    "status": "resolved",
    "상태": "",
    "latitude": "33.507826",
    "longitude": "126.5640243",
    "ownership_standardized": "미상",
    "validated_address_ko": "제주특별자치도 제주시 화북이동 3429",
    "shrine_name": "화북동 본향 가릿당"
  },
  {
    "ID": "168",
    "status": "resolved",
    "상태": "",
    "latitude": "33.5180364",
    "longitude": "126.6082155",
    "ownership_standardized": "개인",
    "validated_address_ko": "제주특별자치도 제주시 삼양일동 1",
    "shrine_name": "삼양1 동 본향 물머리엉덕웃박 감낭하르방․ 할망당"
  },
  {
    "ID": "169",
    "status": "resolved",
    "상태": "",
    "latitude": "33.5243633",
    "longitude": "126.5849631",
    "ownership_standardized": "국가",
    "validated_address_ko": "제주특별자치도 제주시 삼양이동 2104-4",
    "shrine_name": "삼양2동 본향 당팟할망당"
  },
  {
    "ID": "170",
    "status": "resolved",
    "상태": "",
    "latitude": "33.5054323",
    "longitude": "126.5888876",
    "ownership_standardized": "개인",
    "validated_address_ko": "제주특별자치도 제주시 도련일동 1529",
    "shrine_name": "도련1 동 본향 당팟 개당"
  },
  {
    "ID": "171",
    "status": "resolved",
    "상태": "",
    "latitude": "33.4903712",
    "longitude": "126.5960882",
    "ownership_standardized": "개인",
    "validated_address_ko": "제주특별자치도 제주시 봉개북1길 5-9",
    "shrine_name": "봉개 본향 뒷술당"
  },
  {
    "ID": "172",
    "status": "resolved",
    "상태": "",
    "latitude": "33.5076952",
    "longitude": "126.6155703",
    "ownership_standardized": "미상",
    "validated_address_ko": "제주특별자치도 제주시 회천동 1058",
    "shrine_name": "봉개동 동회천 본향 새미 하로산당"
  },
  {
    "ID": "173",
    "status": "resolved",
    "상태": "",
    "latitude": "33.4975619",
    "longitude": "126.6100944",
    "ownership_standardized": "공동",
    "validated_address_ko": "제주특별자치도 제주시 회천동 2108",
    "shrine_name": "봉개 서회천 본향 는새 남선밧당"
  },
  {
    "ID": "174",
    "status": "resolved",
    "상태": "",
    "latitude": "33.4612315",
    "longitude": "126.5550836",
    "ownership_standardized": "개인",
    "validated_address_ko": "제주특별자치도 제주시 아라일동 314",
    "shrine_name": "영평하동 본향 신당루당"
  },
  {
    "ID": "175",
    "status": "resolved",
    "상태": "",
    "latitude": "33.4647583",
    "longitude": "126.5946677",
    "ownership_standardized": "국가",
    "validated_address_ko": "제주특별자치도 제주시 용강동 255",
    "shrine_name": "용강 본향 궤당"
  },
  {
    "ID": "176",
    "status": "resolved",
    "상태": "",
    "latitude": "33.4540099",
    "longitude": "126.5875893",
    "ownership_standardized": "공동",
    "validated_address_ko": "제주특별자치도 제주시 월평동 1",
    "shrine_name": "월평 본향 다라쿳당"
  },
  {
    "ID": "177",
    "status": "resolved",
    "상태": "",
    "latitude": "33.4930179",
    "longitude": "126.9516341",
    "ownership_standardized": "개인",
    "validated_address_ko": "제주특별자치도 제주시 우도면 연평리 1737-13",
    "shrine_name": "천진동 하느리 돈짓당"
  },
  {
    "ID": "178",
    "status": "resolved",
    "상태": "",
    "latitude": "33.49845482",
    "longitude": "126.9455155",
    "ownership_standardized": "개인",
    "validated_address_ko": "제주특별자치도 제주시 우도면 연평리 2594",
    "shrine_name": "서천진동 본향 당동산 종달잇당"
  },
  {
    "ID": "179",
    "status": "unresolved",
    "상태": "",
    "latitude": null,
    "longitude": null,
    "ownership_standardized": "미상",
    "validated_address_ko": null,
    "shrine_name": "영일동 돈짓당"
  },
  {
    "ID": "180",
    "status": "resolved",
    "상태": "",
    "latitude": "33.51390139",
    "longitude": "126.9670804",
    "ownership_standardized": "공동",
    "validated_address_ko": "제주특별자치도 제주시 우도면 연평리 16",
    "shrine_name": "비양동(비양) 돈짓당"
  },
  {
    "ID": "181",
    "status": "unresolved",
    "상태": "폐당",
    "latitude": null,
    "longitude": null,
    "ownership_standardized": "미상",
    "validated_address_ko": null,
    "shrine_name": "상․ 하고수동 성창봉오지돈짓당"
  },
  {
    "ID": "182",
    "status": "unresolved",
    "상태": "",
    "latitude": null,
    "longitude": null,
    "ownership_standardized": "미상",
    "validated_address_ko": null,
    "shrine_name": "전흘동 본향 뜬동산 목지당"
  },
  {
    "ID": "183",
    "status": "resolved",
    "상태": "폐당",
    "latitude": "33.5165623",
    "longitude": "126.9490715",
    "ownership_standardized": "미상",
    "validated_address_ko": "제주특별자치도 제주시 우도면 연평리 968-1",
    "shrine_name": "주흥동 중개 돈짓당"
  },
  {
    "ID": "184",
    "status": "resolved",
    "상태": "",
    "latitude": "33.51027329",
    "longitude": "126.9434553",
    "ownership_standardized": "개인",
    "validated_address_ko": "제주특별자치도 제주시 우도면 연평리 2391-2",
    "shrine_name": "하우목동 본향 목지당"
  },
  {
    "ID": "185",
    "status": "resolved",
    "상태": "",
    "latitude": "33.51027329",
    "longitude": "126.9434553",
    "ownership_standardized": "개인",
    "validated_address_ko": "제주특별자치도 제주시 우도면 연평리 2391-2",
    "shrine_name": "하우목동 돈짓당"
  },
  {
    "ID": "186",
    "status": "unresolved",
    "상태": "",
    "latitude": null,
    "longitude": null,
    "ownership_standardized": "미상",
    "validated_address_ko": null,
    "shrine_name": "대서리 장군당"
  },
  {
    "ID": "187",
    "status": "unresolved",
    "상태": "",
    "latitude": null,
    "longitude": null,
    "ownership_standardized": "미상",
    "validated_address_ko": null,
    "shrine_name": "대서리 당너머 고삿바위"
  },
  {
    "ID": "188",
    "status": "unresolved",
    "상태": "",
    "latitude": null,
    "longitude": null,
    "ownership_standardized": "미상",
    "validated_address_ko": null,
    "shrine_name": "영흥리 뒷산 절기미 산신당"
  },
  {
    "ID": "189",
    "status": "resolved",
    "상태": "",
    "latitude": "33.94477551",
    "longitude": "126.312283",
    "ownership_standardized": "미상",
    "validated_address_ko": "제주특별자치도 제주시 추자면 추자로 376-3",
    "shrine_name": "묵리 당목치동산 처녀당"
  },
  {
    "ID": "190",
    "status": "resolved",
    "상태": "",
    "latitude": "33.95478479",
    "longitude": "126.3406788",
    "ownership_standardized": "미상",
    "validated_address_ko": "제주특별자치도 제주시 추자면 예초리 산 7",
    "shrine_name": "예초리 당목쟁이 물생이끝당"
  },
  {
    "ID": "191",
    "status": "resolved",
    "상태": "",
    "latitude": "33.95231948",
    "longitude": "126.329259",
    "ownership_standardized": "개인",
    "validated_address_ko": "제주특별자치도 제주시 추자면 예초리 산 52",
    "shrine_name": "예초리 엄바위 장승"
  },
  {
    "ID": "192",
    "status": "unresolved",
    "상태": "",
    "latitude": null,
    "longitude": null,
    "ownership_standardized": "미상",
    "validated_address_ko": null,
    "shrine_name": "횡간도 마을 성황당"
  }
]